{
  "status": 0,
  "message": "Success",
  "request_id": "b3976382b4b843719c1061e78413f438",
  "result": {
    "location": {
      "lat": 22.783372,
      "lng": 108.385844
    },
    "address": "广西壮族自治区南宁市青秀区松涛路",
    "poi_count": 129,
    "pois": [
      {
        "id": "10197781462467456043",
        "title": "青秀山风景区",
        "address": "广西壮族自治区南宁市青秀区凤岭南路6-6号",
        "tel": "0771-5560662",
        "category": "旅游景点:国家级景点",
        "location": {
          "lat": 22.783372,
          "lng": 108.385844
        },
        "ad_info": {
          "adcode": 450103,
          "province": "广西壮族自治区",
          "city": "南宁市",
          "district": "青秀区"
        },
        "_distance": 0
      },
      {
        "id": "4736309015822211",
        "title": "水月禅院",
        "address": "广西壮族自治区南宁市青秀区中山街道青秀山管理委员会青秀山风景区内",
        "tel": "0771-5828923",
        "category": "旅游景点:寺庙道观",
        "location": {
          "lat": 22.78219,
          "lng": 108.387317
        },
        "ad_info": {
          "adcode": 450103,
          "province": "广西壮族自治区",
          "city": "南宁市",
          "district": "青秀区"
        },
        "_distance": 200
      },
      {
        "id": "1133627667403383335",
        "title": "青秀山风景区-水月庵(壮元路)",
        "address": "广西壮族自治区南宁市青秀区天池环路与壮元路交叉口西南方向80米左右",
        "tel": "0771-5560662",
        "category": "旅游景点:寺庙道观",
        "location": {
          "lat": 22.782389,
          "lng": 108.387303
        },
        "ad_info": {
          "adcode": 450103,
          "province": "广西壮族自治区",
          "city": "南宁市",
          "district": "青秀区"
        },
        "_distance": 149
      },
      {
        "id": "13664632504186044055",
        "title": "青秀山码头旧址",
        "address": "广西壮族自治区南宁市青秀区壮元路与天池环路交叉口西南440米",
        "tel": "",
        "category": "旅游景点:其它旅游景点",
        "location": {
          "lat": 22.780565,
          "lng": 108.384447
        },
        "ad_info": {
          "adcode": 450103,
          "province": "广西壮族自治区",
          "city": "南宁市",
          "district": "青秀区"
        },
        "_distance": 343
      },
      {
        "id": "5640543551102707626",
        "title": "青秀山风景区-龙象塔",
        "address": "广西壮族自治区南宁市青秀区凤岭南路6-6号青秀山风景区内",
        "tel": "0771-5560662;0771-5828923",
        "category": "旅游景点:风景名胜",
        "location": {
          "lat": 22.780549,
          "lng": 108.389848
        },
        "ad_info": {
          "adcode": 450103,
          "province": "广西壮族自治区",
          "city": "南宁市",
          "district": "青秀区"
        },
        "_distance": 462
      },
      {
        "id": "2848515368380520737",
        "title": "青秀山风景区环山秀坪",
        "address": "广西壮族自治区南宁市青秀区凤岭南路6-6(青秀山旅游风景区)",
        "tel": "0771-5828923",
        "category": "旅游景点:其它旅游景点",
        "location": {
          "lat": 22.783269,
          "lng": 108.392687
        },
        "ad_info": {
          "adcode": 450103,
          "province": "广西壮族自治区",
          "city": "南宁市",
          "district": "青秀区"
        },
        "_distance": 702
      },
      {
        "id": "10672440567411981976",
        "title": "青秀山风景区南门-售票处(青环路)",
        "address": "广西壮族自治区南宁市青秀区青环路青秀山风景区内(西侧)",
        "tel": "",
        "category": "生活服务:票务代售:景点售票",
        "location": {
          "lat": 22.785262,
          "lng": 108.381521
        },
        "ad_info": {
          "adcode": 450103,
          "province": "广西壮族自治区",
          "city": "南宁市",
          "district": "青秀区"
        },
        "_distance": 491
      },
      {
        "id": "986848905848988266",
        "title": "青秀山风景区-千年苏铁园",
        "address": "广西壮族自治区南宁市青秀区凤岭南路6-6号青秀山风景区内",
        "tel": "0771-5560662;0771-5828923",
        "category": "旅游景点:其它旅游景点",
        "location": {
          "lat": 22.78439,
          "lng": 108.388753
        },
        "ad_info": {
          "adcode": 450103,
          "province": "广西壮族自治区",
          "city": "南宁市",
          "district": "青秀区"
        },
        "_distance": 319
      },
      {
        "id": "6696340319174877056",
        "title": "南宁博物馆",
        "address": "广西壮族自治区南宁市良庆区龙堤路15号",
        "tel": "0771-2842637",
        "category": "文化场馆:博物馆",
        "location": {
          "lat": 22.775277,
          "lng": 108.38234
        },
        "ad_info": {
          "adcode": 450108,
          "province": "广西壮族自治区",
          "city": "南宁市",
          "district": "良庆区"
        },
        "_distance": 793
      },
      {
        "id": "11399443935263972398",
        "title": "南宁孔庙",
        "address": "广西壮族自治区南宁市青秀区青环路9号",
        "tel": "0771-5531030;0771-5771906",
        "category": "旅游景点:寺庙道观",
        "location": {
          "lat": 22.777884,
          "lng": 108.393449
        },
        "ad_info": {
          "adcode": 450103,
          "province": "广西壮族自治区",
          "city": "南宁市",
          "district": "青秀区"
        },
        "_distance": 915
      },
      {
        "id": "6654123216270089790",
        "title": "青秀山风景区-相思湖",
        "address": "广西壮族自治区南宁市青秀区凤岭南路6-6青秀山旅游风景区",
        "tel": "0771-5828923;18076588661",
        "category": "旅游景点:其它旅游景点",
        "location": {
          "lat": 22.788729,
          "lng": 108.388358
        },
        "ad_info": {
          "adcode": 450103,
          "province": "广西壮族自治区",
          "city": "南宁市",
          "district": "青秀区"
        },
        "_distance": 649
      },
      {
        "id": "17670766510427545165",
        "title": "良庆镇",
        "address": "广西壮族自治区南宁市良庆区",
        "tel": "",
        "category": "地名地址:行政地名",
        "location": {
          "lat": 22.749366,
          "lng": 108.416885
        },
        "ad_info": {
          "adcode": 450108,
          "province": "广西壮族自治区",
          "city": "南宁市",
          "district": "良庆区"
        },
        "_distance": 463
      },
      {
        "id": "7507321022085877119",
        "title": "青秀山风景区-状元泉",
        "address": "广西壮族自治区南宁市青秀区凤岭南路6-6号青秀山风景区内(西侧)",
        "tel": "0771-5828923",
        "category": "旅游景点:风景名胜",
        "location": {
          "lat": 22.789567,
          "lng": 108.384203
        },
        "ad_info": {
          "adcode": 450103,
          "province": "广西壮族自治区",
          "city": "南宁市",
          "district": "青秀区"
        },
        "_distance": 709
      },
      {
        "id": "8413280045333151157",
        "title": "千年苏铁园观光车停靠站",
        "address": "广西壮族自治区南宁市青秀区",
        "tel": "",
        "category": "旅游景点:景点公园附属",
        "location": {
          "lat": 22.783802,
          "lng": 108.387585
        },
        "ad_info": {
          "adcode": 450103,
          "province": "广西壮族自治区",
          "city": "南宁市",
          "district": "青秀区"
        },
        "_distance": 184
      },
      {
        "id": "17344348332246070811",
        "title": "青秀山风景区-天池",
        "address": "广西壮族自治区南宁市青秀区凤岭南路6-6青秀山旅游风景区",
        "tel": "0771-5828923",
        "category": "旅游景点:风景名胜",
        "location": {
          "lat": 22.782982,
          "lng": 108.387881
        },
        "ad_info": {
          "adcode": 450103,
          "province": "广西壮族自治区",
          "city": "南宁市",
          "district": "青秀区"
        },
        "_distance": 213
      },
      {
        "id": "7555502551226820868",
        "title": "青秀山风景区洞虚馆",
        "address": "广西壮族自治区南宁市青秀区青秀山管理委员会青环路青秀山风景区南门",
        "tel": "0771-5828923",
        "category": "旅游景点:其它旅游景点",
        "location": {
          "lat": 22.782096,
          "lng": 108.387129
        },
        "ad_info": {
          "adcode": 450103,
          "province": "广西壮族自治区",
          "city": "南宁市",
          "district": "青秀区"
        },
        "_distance": 193
      },
      {
        "id": "10410835900290304900",
        "title": "海天一览",
        "address": "广西壮族自治区南宁市青秀区青秀山风景区内(西南角)",
        "tel": "0771-5828923",
        "category": "旅游景点:风景名胜",
        "location": {
          "lat": 22.784293,
          "lng": 108.389132
        },
        "ad_info": {
          "adcode": 450103,
          "province": "广西壮族自治区",
          "city": "南宁市",
          "district": "青秀区"
        },
        "_distance": 352
      },
      {
        "id": "16388764649056371801",
        "title": "步云门",
        "address": "广西壮族自治区南宁市青秀区青秀山风景区内(西南角)",
        "tel": "0771-5828923",
        "category": "旅游景点:其它旅游景点",
        "location": {
          "lat": 22.782217,
          "lng": 108.389579
        },
        "ad_info": {
          "adcode": 450103,
          "province": "广西壮族自治区",
          "city": "南宁市",
          "district": "青秀区"
        },
        "_distance": 404
      },
      {
        "id": "11917940297491965565",
        "title": "古道",
        "address": "广西壮族自治区南宁市青秀区凤岭南路6-6号(青秀山旅游风景区)",
        "tel": "",
        "category": "旅游景点:风景名胜",
        "location": {
          "lat": 22.781937,
          "lng": 108.387632
        },
        "ad_info": {
          "adcode": 450103,
          "province": "广西壮族自治区",
          "city": "南宁市",
          "district": "青秀区"
        },
        "_distance": 243
      },
      {
        "id": "9531877067183427711",
        "title": "花间晓岚",
        "address": "广西壮族自治区南宁市青秀区天池环路与壮元路交叉口东南120米",
        "tel": "0771-5828923",
        "category": "旅游景点:其它旅游景点",
        "location": {
          "lat": 22.782221,
          "lng": 108.388659
        },
        "ad_info": {
          "adcode": 450103,
          "province": "广西壮族自治区",
          "city": "南宁市",
          "district": "青秀区"
        },
        "_distance": 316
      }
    ],
    "address_component": {
      "nation": "中国",
      "province": "广西壮族自治区",
      "city": "南宁市",
      "district": "青秀区",
      "street": "松涛路",
      "street_number": ""
    },
    "ad_info": {
      "nation_code": "156",
      "adcode": "450103",
      "phone_area_code": "0771",
      "city_code": "156450100",
      "name": "中国,广西壮族自治区,南宁市,青秀区",
      "location": {
        "lat": 22.785833,
        "lng": 108.495204
      },
      "nation": "中国",
      "province": "广西壮族自治区",
      "city": "南宁市",
      "district": "青秀区",
      "_distance": 0
    },
    "address_reference": {
      "town": {
        "id": "450103451",
        "title": "青秀山管理委员会",
        "location": {
          "lat": 22.785125,
          "lng": 108.387557
        },
        "_distance": 0,
        "_dir_desc": "内"
      },
      "landmark_l1": {
        "id": "10197781462467456043",
        "title": "青秀山风景区",
        "location": {
          "lat": 22.78737,
          "lng": 108.38712
        },
        "_distance": 0,
        "_dir_desc": "内"
      },
      "landmark_l2": {
        "id": "1133627667403383335",
        "title": "青秀山风景区-水月庵(壮元路)",
        "location": {
          "lat": 22.782389,
          "lng": 108.387303
        },
        "_distance": 149.5,
        "_dir_desc": "西北"
      },
      "street": {
        "id": "557448111457923540",
        "title": "松涛路",
        "location": {
          "lat": 22.784702,
          "lng": 108.385223
        },
        "_distance": 101.9,
        "_dir_desc": "南"
      },
      "street_number": {
        "id": "",
        "title": "",
        "location": {
          "lat": 22.784702,
          "lng": 108.385223
        },
        "_distance": 101.9,
        "_dir_desc": "南"
      },
      "crossroad": {
        "id": "1234290",
        "title": "天池环路/棕榈路(路口)",
        "location": {
          "lat": 22.78302,
          "lng": 108.3905
        },
        "_distance": 473.4,
        "_dir_desc": "西"
      },
      "water": {
        "id": "13867532603530023290",
        "title": "董泉",
        "location": {
          "lat": 22.780704,
          "lng": 108.388285
        },
        "_distance": 388.1,
        "_dir_desc": "西北"
      }
    },
    "formatted_addresses": {
      "recommend": "青秀山风景区水月庵(壮元路)西北",
      "rough": "青秀山风景区水月庵(壮元路)西北",
      "standard_address": "广西壮族自治区南宁市青秀区天池环路与壮元路交叉口西南方向80米左右"
    }
  }
}
